,City,Country,Lat,Lng,Max Temp,Humidity,Cloudiness,Wind Speed,Current description,Date
1,Hambantota,LK,6.1241,81.1185,76.57,86,100,5.57,overcast clouds,2021-10-26 21:11:50
6,Halvad,IN,23.0167,71.1833,79.09,48,10,5.26,clear sky,2021-10-26 21:11:58
8,Mahebourg,MU,-20.4081,57.7,73.26,73,14,13.0,few clouds,2021-10-26 21:12:01
18,Bambous Virieux,MU,-20.3428,57.7575,73.22,73,19,12.91,few clouds,2021-10-26 21:12:18
20,Butaritari,KI,3.0707,172.7902,82.58,74,35,12.39,scattered clouds,2021-10-26 21:12:22
21,Ribeira Grande,PT,38.5167,-28.7,72.0,88,75,18.41,broken clouds,2021-10-26 21:10:48
22,Marzuq,YE,14.4,46.4667,70.23,63,3,3.58,clear sky,2021-10-26 21:12:25
24,Coahuayana,MX,18.7333,-103.6833,86.88,65,100,5.26,overcast clouds,2021-10-26 21:12:28
25,Arraial Do Cabo,BR,-22.9661,-42.0278,73.26,88,75,8.05,broken clouds,2021-10-26 21:12:29
30,Mount Isa,AU,-20.7333,139.5,73.17,56,66,0.0,broken clouds,2021-10-26 21:12:38
31,Chuy,UY,-33.6971,-53.4616,76.73,65,0,6.13,clear sky,2021-10-26 21:12:39
32,Kapaa,US,22.0752,-159.319,82.38,73,1,1.99,clear sky,2021-10-26 21:09:52
34,Muisne,EC,0.6,-80.0333,82.51,84,100,9.84,overcast clouds,2021-10-26 21:12:43
35,Puerto Ayora,EC,-0.7393,-90.3518,75.16,91,90,5.01,overcast clouds,2021-10-26 21:09:48
36,Rikitea,PF,-23.1203,-134.9692,74.66,81,100,19.22,light rain,2021-10-26 21:12:46
38,Tema,GH,5.667,-0.0166,79.65,81,100,8.32,overcast clouds,2021-10-26 21:12:49
40,Manokwari,ID,-0.8667,134.0833,78.1,78,32,2.77,scattered clouds,2021-10-26 21:12:03
41,Oriximina,BR,-1.7656,-55.8661,88.48,55,48,2.68,heavy intensity rain,2021-10-26 21:11:50
48,Santa Cruz,BO,-17.8,-63.1667,87.26,33,20,2.3,few clouds,2021-10-26 21:11:07
50,Nouadhibou,MR,20.931,-17.0347,70.47,72,99,19.35,overcast clouds,2021-10-26 21:13:10
56,Ponta Do Sol,PT,32.6667,-17.1,70.43,61,13,6.42,few clouds,2021-10-26 21:13:22
58,Ambilobe,MG,-13.2,49.05,72.79,72,1,5.01,clear sky,2021-10-26 21:13:26
60,San Luis Potosi,MX,22.5,-100.5,77.67,43,100,8.97,overcast clouds,2021-10-26 21:13:30
63,Bonthe,SL,7.5264,-12.505,78.75,81,98,4.97,overcast clouds,2021-10-26 21:13:35
64,Trairi,BR,-3.2778,-39.2689,80.44,74,9,13.44,clear sky,2021-10-26 21:11:16
65,Puerto Madryn,AR,-42.7692,-65.0385,77.83,20,100,26.6,overcast clouds,2021-10-26 21:13:38
66,Atuona,PF,-9.8,-139.0333,77.4,68,6,14.81,clear sky,2021-10-26 21:13:33
67,Abu Dhabi,AE,24.4667,54.3667,82.51,57,0,5.75,clear sky,2021-10-26 21:13:41
72,Banda Aceh,ID,5.5577,95.3222,78.4,82,99,8.34,overcast clouds,2021-10-26 21:13:49
73,Pontianak,ID,-0.0333,109.3333,76.98,100,90,3.44,mist,2021-10-26 21:13:52
76,Vaini,TO,-21.2,-175.2,77.16,78,20,13.8,few clouds,2021-10-26 21:13:56
82,Victoria,HK,22.2855,114.1577,78.33,86,100,1.99,overcast clouds,2021-10-26 21:12:02
83,Caravelas,BR,-17.7125,-39.2481,75.52,87,9,9.17,clear sky,2021-10-26 21:14:12
85,Canalete,CO,8.6761,-76.2042,83.12,82,91,11.48,overcast clouds,2021-10-26 21:14:15
86,Lubao,PH,14.9167,120.55,78.15,86,94,4.88,overcast clouds,2021-10-26 21:14:17
87,Umm Lajj,SA,25.0213,37.2685,79.32,60,0,4.47,clear sky,2021-10-26 21:14:19
88,Bhikangaon,IN,21.8667,75.95,71.46,62,2,3.31,clear sky,2021-10-26 21:14:22
91,Comodoro Rivadavia,AR,-45.8667,-67.5,71.46,26,0,31.07,clear sky,2021-10-26 21:14:27
93,Alice Springs,AU,-23.7,133.8833,83.75,28,67,12.66,broken clouds,2021-10-26 21:14:30
102,Dillon,US,34.4166,-79.3712,75.18,37,0,15.12,clear sky,2021-10-26 21:14:48
104,Luanda,AO,-8.8368,13.2343,75.2,83,0,10.36,clear sky,2021-10-26 21:14:52
105,Avera,US,33.194,-82.5271,74.08,40,0,10.27,clear sky,2021-10-26 21:11:34
106,Marsa Matruh,EG,31.3525,27.2453,70.23,76,25,10.25,scattered clouds,2021-10-26 21:14:55
107,Bengkulu,ID,-3.8004,102.2655,75.31,90,100,6.42,light rain,2021-10-26 21:14:56
108,Managua,NI,12.1328,-86.2504,86.95,66,94,6.82,overcast clouds,2021-10-26 21:11:26
109,Port Blair,IN,11.6667,92.75,77.04,88,75,2.3,mist,2021-10-26 21:15:00
113,Hilo,US,19.7297,-155.09,82.13,62,40,6.91,scattered clouds,2021-10-26 21:15:08
114,Sai Buri,TH,6.7013,101.6168,77.94,86,89,1.88,overcast clouds,2021-10-26 21:15:10
118,Avarua,CK,-21.2078,-159.775,78.85,65,20,11.5,few clouds,2021-10-26 21:15:16
121,Saint-Philippe,RE,-21.3585,55.7679,71.15,82,23,12.3,few clouds,2021-10-26 21:15:23
124,Distraccion,CO,10.8969,-72.8861,83.03,78,79,4.63,broken clouds,2021-10-26 21:15:28
126,Siwana,IN,25.6333,72.4167,75.63,34,0,6.33,clear sky,2021-10-26 21:15:31
129,Ambulu,ID,-8.345,113.6058,76.05,92,97,1.45,overcast clouds,2021-10-26 21:15:35
132,Sao Felix Do Xingu,BR,-6.6447,-51.995,73.72,97,100,2.26,light rain,2021-10-26 21:15:40
133,Georgetown,MY,5.4112,100.3354,78.89,92,40,0.0,scattered clouds,2021-10-26 21:15:23
134,Sharjah,AE,25.3573,55.4033,85.98,49,0,2.3,clear sky,2021-10-26 21:15:43
149,Ko Samui,TH,9.5357,99.9357,82.15,77,93,9.75,overcast clouds,2021-10-26 21:16:10
152,Vila Velha,BR,-20.3297,-40.2925,76.95,83,40,6.91,scattered clouds,2021-10-26 21:16:16
153,Faanui,PF,-16.4833,-151.75,78.46,77,76,7.0,broken clouds,2021-10-26 21:16:18
157,Inongo,CD,-1.95,18.2667,72.7,90,52,3.74,broken clouds,2021-10-26 21:16:24
161,Grand Gaube,MU,-20.0064,57.6608,73.38,70,2,5.01,clear sky,2021-10-26 21:12:18
164,Cockburn Town,TC,21.4612,-71.1419,82.36,71,95,5.57,overcast clouds,2021-10-26 21:16:39
168,Vila Franca Do Campo,PT,37.7167,-25.4333,70.21,86,27,12.39,scattered clouds,2021-10-26 21:16:45
171,Dakar,SN,14.6937,-17.4441,82.53,78,0,0.0,clear sky,2021-10-26 21:16:25
176,Bilma,NE,18.6853,12.9164,83.68,14,0,6.67,clear sky,2021-10-26 21:16:59
183,Mushabani,IN,22.5167,86.45,72.1,81,38,3.13,scattered clouds,2021-10-26 21:17:13
186,Bairiki,KI,1.3292,172.9752,84.2,70,20,9.22,few clouds,2021-10-26 21:17:18
192,Kavaratti,IN,10.5669,72.642,81.86,74,94,15.39,overcast clouds,2021-10-26 21:17:27
194,Sao Joao Da Barra,BR,-21.6403,-41.0511,77.09,96,100,4.36,overcast clouds,2021-10-26 21:17:31
199,Kintampo,GH,8.0563,-1.7306,77.47,76,92,4.79,overcast clouds,2021-10-26 21:17:41
202,Lompoc,US,34.6391,-120.4579,74.79,54,1,18.41,clear sky,2021-10-26 21:13:06
203,Kribi,CM,2.95,9.9167,77.4,89,79,4.29,broken clouds,2021-10-26 21:17:51
209,Saint-Pierre,RE,-21.3393,55.4781,71.24,66,0,5.75,clear sky,2021-10-26 21:18:02
210,Porbandar,IN,21.6422,69.6093,79.52,54,6,9.13,clear sky,2021-10-26 21:18:03
213,Alyangula,AU,-13.8483,136.4192,81.99,78,16,7.81,few clouds,2021-10-26 21:18:08
215,Atar,MR,20.5169,-13.0499,85.59,29,39,10.8,scattered clouds,2021-10-26 21:18:11
218,Kismayo,SO,-0.3582,42.5454,78.91,85,50,12.01,scattered clouds,2021-10-26 21:18:16
219,Bom Jardim,BR,-7.7958,-35.5872,74.73,76,67,12.17,broken clouds,2021-10-26 21:18:18
221,Cayenne,GF,4.9333,-52.3333,82.44,84,20,5.99,few clouds,2021-10-26 21:18:21
222,Praia Da Vitoria,PT,38.7333,-27.0667,71.76,88,40,23.87,scattered clouds,2021-10-26 21:18:23
224,Katherine,AU,-14.4667,132.2667,82.72,74,82,5.75,broken clouds,2021-10-26 21:18:26
228,Aswan,EG,24.0934,32.907,79.75,26,6,10.45,clear sky,2021-10-26 21:18:35
229,Puerto Ayacucho,VE,5.6639,-67.6236,82.4,80,86,5.93,overcast clouds,2021-10-26 21:18:37
232,Puerto Escondido,MX,15.85,-97.0667,88.63,55,40,9.22,scattered clouds,2021-10-26 21:18:42
239,Bandarbeyla,SO,9.4942,50.8122,77.67,80,23,2.26,few clouds,2021-10-26 21:18:55
240,Cidreira,BR,-30.1811,-50.2056,72.39,65,0,8.79,clear sky,2021-10-26 21:18:56
241,Lodwar,KE,3.1191,35.5973,85.86,40,83,15.37,broken clouds,2021-10-26 21:18:58
242,Monrovia,LR,6.3005,-10.7969,76.77,86,100,3.85,overcast clouds,2021-10-26 21:16:54
243,Adrar,MR,20.5022,-10.0711,81.81,27,21,11.21,few clouds,2021-10-26 21:19:02
244,Kununurra,AU,-15.7667,128.7333,80.58,78,40,5.75,scattered clouds,2021-10-26 21:19:04
246,Souillac,MU,-20.5167,57.5167,73.36,75,8,11.81,clear sky,2021-10-26 21:19:08
247,Saquarema,BR,-22.92,-42.5103,73.54,95,100,9.73,overcast clouds,2021-10-26 21:19:10
249,Aojiang,CN,22.9421,116.0359,76.01,84,100,11.34,overcast clouds,2021-10-26 21:19:13
250,Tessalit,ML,20.1986,1.0114,85.53,16,21,9.28,few clouds,2021-10-26 21:19:14
254,Vao,NC,-22.6667,167.4833,72.07,85,100,11.83,overcast clouds,2021-10-26 21:19:21
255,Kokopo,PG,-4.352,152.2633,78.35,81,30,6.42,scattered clouds,2021-10-26 21:19:23
256,Jizan,SA,17.3333,42.6667,85.14,62,0,4.61,clear sky,2021-10-26 21:19:25
257,Pouembout,NC,-21.1333,164.9,76.66,71,95,3.47,overcast clouds,2021-10-26 21:19:27
258,Bathsheba,BB,13.2167,-59.5167,83.01,69,20,17.27,few clouds,2021-10-26 21:19:29
263,Meulaboh,ID,4.1363,96.1285,75.45,90,100,4.21,overcast clouds,2021-10-26 21:19:39
265,Hithadhoo,MV,-0.6,73.0833,82.98,74,100,18.28,overcast clouds,2021-10-26 21:19:42
268,Lakeway,US,30.3638,-97.9796,87.66,67,80,5.99,broken clouds,2021-10-26 21:19:47
269,Angoche,MZ,-16.2325,39.9086,77.31,84,0,5.88,clear sky,2021-10-26 21:19:48
271,Inirida,CO,3.8653,-67.9239,77.29,91,100,1.72,overcast clouds,2021-10-26 21:19:52
273,Innisfail,AU,-17.5333,146.0333,78.17,68,73,0.6,broken clouds,2021-10-26 21:19:55
274,Bowen,AU,-20.0167,148.2333,78.55,71,94,9.73,overcast clouds,2021-10-26 21:19:56
275,Upington,ZA,-28.4478,21.2561,75.58,33,1,5.75,clear sky,2021-10-26 21:19:58
277,Santa Teresa,VE,10.2341,-66.6631,82.42,84,100,1.39,light rain,2021-10-26 21:20:01
281,Miri,MY,4.4148,114.0089,77.14,94,40,4.61,scattered clouds,2021-10-26 21:20:10
282,Haysville,US,37.5645,-97.3523,78.42,67,20,15.01,few clouds,2021-10-26 21:16:49
285,Sechura,PE,-5.5569,-80.8222,76.41,57,95,13.33,overcast clouds,2021-10-26 21:20:16
286,Galveston,US,29.3669,-94.9669,84.31,78,94,3.0,overcast clouds,2021-10-26 21:20:18
289,Waspan,NI,14.7419,-83.9717,87.48,62,88,4.81,overcast clouds,2021-10-26 21:20:23
290,Isangel,VU,-19.55,169.2667,80.71,83,75,9.22,broken clouds,2021-10-26 21:20:25
291,Tautira,PF,-17.7333,-149.15,84.22,79,31,9.31,scattered clouds,2021-10-26 21:20:26
292,Padang,ID,-0.9492,100.3543,73.45,92,100,6.53,light rain,2021-10-26 21:17:34
293,Bonfim,BR,3.0833,-59.95,83.55,64,96,2.39,light rain,2021-10-26 21:20:30
294,Salalah,OM,17.0151,54.0924,75.29,46,0,4.61,clear sky,2021-10-26 21:20:32
296,Dingle,PH,10.9995,122.6711,75.29,93,100,6.51,overcast clouds,2021-10-26 21:20:36
298,Charters Towers,AU,-20.1,146.2667,74.75,71,5,15.05,clear sky,2021-10-26 21:20:40
301,Mbanza-Ngungu,CD,-5.25,14.8667,71.38,85,58,3.4,broken clouds,2021-10-26 21:20:45
303,Tual,ID,-5.6667,132.75,83.62,75,86,9.95,overcast clouds,2021-10-26 21:20:48
304,Loreto,MX,22.2667,-101.9667,75.11,38,83,17.4,broken clouds,2021-10-26 21:20:49
305,Port Keats,AU,-14.25,129.55,82.69,79,46,6.17,scattered clouds,2021-10-26 21:20:51
306,Guinguineo,SN,14.2667,-15.95,86.05,74,0,6.91,clear sky,2021-10-26 21:20:53
309,Madingou,CG,-4.1536,13.55,76.14,91,91,3.2,overcast clouds,2021-10-26 21:20:58
310,Conde,BR,-7.2597,-34.9075,78.26,78,75,8.05,broken clouds,2021-10-26 21:20:59
314,Merauke,ID,-8.4667,140.3333,78.44,87,100,10.78,overcast clouds,2021-10-26 21:21:06
316,Kirkuk,IQ,35.4681,44.3922,71.01,25,85,5.44,overcast clouds,2021-10-26 21:21:11
320,Rancho Palos Verdes,US,33.7445,-118.387,75.07,67,1,5.01,clear sky,2021-10-26 21:21:18
324,Namatanai,PG,-3.6667,152.4333,81.95,74,73,6.13,broken clouds,2021-10-26 21:21:26
328,Kavieng,PG,-2.5744,150.7967,82.38,71,82,1.59,broken clouds,2021-10-26 21:21:32
330,Ampanihy,MG,-24.7,44.75,71.62,83,2,8.48,clear sky,2021-10-26 21:21:35
332,Kahului,US,20.8947,-156.47,87.06,65,20,13.8,few clouds,2021-10-26 21:21:38
338,Gogrial,SS,8.5332,28.1004,76.59,79,100,3.04,light rain,2021-10-26 21:21:48
340,Kidal,ML,18.4411,1.4078,86.45,16,46,5.35,scattered clouds,2021-10-26 21:21:52
341,Januaria,BR,-15.4833,-44.3667,81.86,53,87,3.85,overcast clouds,2021-10-26 21:21:53
343,Sao Joao Do Paraiso,BR,-15.3136,-42.0144,74.08,64,94,11.3,overcast clouds,2021-10-26 21:21:57
344,Itarema,BR,-2.9248,-39.9167,80.26,77,5,17.74,clear sky,2021-10-26 21:21:59
345,Nacala,MZ,-14.5428,40.6728,74.66,86,11,3.11,few clouds,2021-10-26 21:22:00
347,Honiara,SB,-9.4333,159.95,81.79,73,67,1.05,broken clouds,2021-10-26 21:22:04
354,Hirara,JP,24.8,125.2833,76.33,58,19,13.67,few clouds,2021-10-26 21:21:43
355,Inhambane,MZ,-23.865,35.3833,72.18,80,7,10.96,clear sky,2021-10-26 21:22:16
358,Upata,VE,8.0086,-62.3989,79.2,81,31,4.9,scattered clouds,2021-10-26 21:22:23
360,Santa Isabel Do Rio Negro,BR,-0.4139,-65.0192,76.6,95,100,5.35,overcast clouds,2021-10-26 21:22:28
362,Viedma,AR,-40.8135,-62.9967,85.77,11,3,13.09,clear sky,2021-10-26 21:22:33
363,Sao Borja,BR,-28.6606,-56.0044,77.95,52,0,7.02,clear sky,2021-10-26 21:22:35
365,Matara,LK,5.9485,80.5353,75.47,90,100,7.47,light rain,2021-10-26 21:22:38
366,Sibiti,CG,-3.6819,13.3499,70.05,98,80,2.68,broken clouds,2021-10-26 21:22:40
368,Russell,US,32.3502,-85.1999,72.68,51,1,8.05,clear sky,2021-10-26 21:22:44
371,Jambi,ID,-1.6,103.6167,73.67,98,94,1.3,overcast clouds,2021-10-26 21:22:49
377,Jiazi,CN,22.8779,116.067,73.67,83,100,15.1,overcast clouds,2021-10-26 21:22:59
381,Ariquemes,BR,-9.9133,-63.0408,83.46,62,99,3.67,overcast clouds,2021-10-26 21:23:05
383,Lalmohan,BD,22.3384,90.7419,78.48,74,100,7.52,overcast clouds,2021-10-26 21:23:09
387,Makakilo City,US,21.3469,-158.0858,82.72,52,1,11.5,clear sky,2021-10-26 21:21:53
390,Bardiyah,LY,31.7561,25.0865,70.84,81,85,14.83,overcast clouds,2021-10-26 21:23:22
391,Barra Patuca,HN,15.8,-84.2833,84.85,71,62,10.0,broken clouds,2021-10-26 21:23:23
393,Tiarei,PF,-17.5333,-149.3333,84.22,79,43,8.08,scattered clouds,2021-10-26 21:23:26
394,Ambunti,PG,-4.2365,142.8448,73.92,99,96,2.24,moderate rain,2021-10-26 21:23:28
396,Alofi,NU,-19.0595,-169.9187,80.49,65,75,16.11,broken clouds,2021-10-26 21:23:31
397,Beroroha,MG,-21.6667,45.1667,79.16,54,3,2.44,clear sky,2021-10-26 21:23:32
399,Felipe Carrillo Puerto,MX,19.5833,-88.05,83.35,90,100,1.79,overcast clouds,2021-10-26 21:23:35
400,Kapit,MY,2.0167,112.9333,73.17,99,97,1.23,light rain,2021-10-26 21:23:37
401,Rio Grande,BR,-32.035,-52.0986,82.51,74,0,6.51,clear sky,2021-10-26 21:23:38
403,Pirae,PF,-17.5167,-149.5333,84.22,70,20,14.97,few clouds,2021-10-26 21:23:41
404,Noumea,NC,-22.2763,166.4572,77.0,99,99,4.74,overcast clouds,2021-10-26 21:23:43
406,Muncar,ID,-8.4333,114.3333,77.25,90,90,2.1,overcast clouds,2021-10-26 21:23:46
409,Juntas,CR,10.2809,-84.9595,83.25,77,99,4.05,overcast clouds,2021-10-26 21:23:50
413,Teacapan,MX,22.55,-105.75,85.1,63,25,7.65,scattered clouds,2021-10-26 21:23:57
422,Mamallapuram,IN,12.6264,80.1722,80.65,76,79,8.7,broken clouds,2021-10-26 21:24:13
428,Trincomalee,LK,8.5711,81.2335,81.41,73,100,6.89,overcast clouds,2021-10-26 21:24:22
430,Surt,LY,31.2089,16.5887,73.45,69,17,13.38,few clouds,2021-10-26 21:24:25
433,La Romana,DO,18.4273,-68.9728,86.36,79,20,9.22,few clouds,2021-10-26 21:24:31
443,Quang Ngai,VN,15.1167,108.8,75.88,96,98,6.24,heavy intensity rain,2021-10-26 21:24:47
451,Touros,BR,-5.1989,-35.4608,76.1,73,9,14.94,clear sky,2021-10-26 21:25:01
454,Sambava,MG,-14.2667,50.1667,71.46,86,3,10.63,clear sky,2021-10-26 21:22:01
455,Sao Filipe,CV,14.8961,-24.4956,79.52,75,81,9.62,broken clouds,2021-10-26 21:25:08
456,Corralillo,CU,22.9819,-80.5856,84.29,70,100,8.55,overcast clouds,2021-10-26 21:25:10
459,Hervey Bay,AU,-25.2986,152.8535,79.03,80,15,6.31,few clouds,2021-10-26 21:25:14
460,Santa Maria Del Oro,MX,25.9333,-105.3667,81.64,22,0,19.73,clear sky,2021-10-26 21:25:16
462,Isaka,TZ,-3.9,32.9333,77.79,33,98,5.03,overcast clouds,2021-10-26 21:25:20
475,Matay,EG,28.419,30.7792,73.78,49,0,11.86,clear sky,2021-10-26 21:25:42
480,Marabba,SD,12.35,32.1833,88.45,21,72,4.12,broken clouds,2021-10-26 21:25:52
481,Iranshahr,IR,27.2025,60.6848,73.74,27,0,4.61,clear sky,2021-10-26 21:25:54
489,Port-Gentil,GA,-0.7193,8.7815,78.76,89,75,8.05,broken clouds,2021-10-26 21:26:08
492,Lingao,CN,19.9103,109.6859,75.63,83,100,13.73,overcast clouds,2021-10-26 21:26:13
493,Mitu,CO,1.1983,-70.1733,78.33,95,97,1.97,overcast clouds,2021-10-26 21:26:15
498,Impfondo,CG,1.6381,18.0667,72.54,95,12,0.98,few clouds,2021-10-26 21:26:24
499,Pala,TD,9.3642,14.9046,74.23,81,87,4.5,overcast clouds,2021-10-26 21:26:26
500,Mackay,AU,-21.15,149.2,81.05,83,11,0.0,few clouds,2021-10-26 21:26:28
501,Bondoukou,CI,8.0333,-2.8,75.25,86,100,4.12,overcast clouds,2021-10-26 21:26:30
504,Zamora,EC,-4.0692,-78.9567,71.26,96,100,1.66,light rain,2021-10-26 21:26:35
507,Riberalta,BO,-10.9833,-66.1,79.0,78,75,0.0,broken clouds,2021-10-26 21:26:41
508,Lorengau,PG,-2.0226,147.2712,82.49,73,35,4.9,scattered clouds,2021-10-26 21:26:42
510,Sinazongwe,ZM,-17.2614,27.4618,80.29,52,48,1.25,scattered clouds,2021-10-26 21:26:46
512,Sabang,ID,5.8933,95.3214,81.07,77,93,10.51,moderate rain,2021-10-26 21:26:50
515,Crixas,BR,-14.5489,-49.9692,76.35,83,70,11.83,broken clouds,2021-10-26 21:26:56
516,Rockport,US,28.0206,-97.0544,86.02,78,20,5.01,few clouds,2021-10-26 21:26:58
517,Kodinar,IN,20.7903,70.7031,77.52,64,0,4.41,clear sky,2021-10-26 21:27:00
521,Sinnamary,GF,5.3833,-52.95,80.02,85,57,11.81,broken clouds,2021-10-26 21:27:08
522,Chai Nat,TH,15.1167,100.1,73.44,87,99,2.73,overcast clouds,2021-10-26 21:27:09
524,Riachao Das Neves,BR,-11.7461,-44.91,85.89,45,84,9.4,broken clouds,2021-10-26 21:27:14
525,Lethem,GY,3.3803,-59.7968,87.85,66,40,9.22,scattered clouds,2021-10-26 21:27:15
530,Praxedis Guerrero,MX,31.3667,-106.0167,79.81,23,0,32.23,clear sky,2021-10-26 21:27:23
531,Rocha,UY,-34.4833,-54.3333,77.23,68,0,7.31,clear sky,2021-10-26 21:27:25
532,Chopinzinho,BR,-25.8558,-52.5233,71.2,74,100,4.29,overcast clouds,2021-10-26 21:27:27
537,Porto Velho,BR,-8.7619,-63.9039,86.05,58,20,3.44,few clouds,2021-10-26 21:27:34
541,Xuddur,SO,4.1213,43.8894,75.33,75,27,15.68,scattered clouds,2021-10-26 21:27:41
544,Bumbuna,SL,9.05,-11.7333,72.03,97,99,0.74,overcast clouds,2021-10-26 21:27:46
547,Auki,SB,-8.7676,160.7034,82.44,73,77,1.57,broken clouds,2021-10-26 21:27:51
548,Mweka,CD,-4.85,21.5667,70.0,91,89,0.31,light rain,2021-10-26 21:27:53
549,Dhidhdhoo,MV,6.8833,73.1,81.7,73,99,12.75,overcast clouds,2021-10-26 21:27:54
550,Tecoanapa,MX,16.5167,-98.75,83.79,74,98,7.61,overcast clouds,2021-10-26 21:27:56
551,Jibuti,DJ,11.5,42.5,81.82,69,4,16.46,clear sky,2021-10-26 21:27:58
552,Blackwater,AU,-23.5833,148.8833,73.54,78,13,9.8,few clouds,2021-10-26 21:27:59
553,Cape Canaveral,US,28.4058,-80.6048,88.07,53,1,12.66,clear sky,2021-10-26 21:28:01
554,Ocho Rios,JM,18.4025,-77.1048,85.75,77,41,8.19,scattered clouds,2021-10-26 21:28:03
558,Ugoofaaru,MV,5.6667,73.0,80.98,79,68,11.59,broken clouds,2021-10-26 21:28:09
561,Quelimane,MZ,-17.8786,36.8883,77.09,75,96,6.76,overcast clouds,2021-10-26 21:28:15
562,Saint-Georges,GD,12.0564,-61.7485,83.88,74,20,20.71,few clouds,2021-10-26 21:28:17
568,Mogadishu,SO,2.0371,45.3438,79.83,82,31,13.38,scattered clouds,2021-10-26 21:28:29
570,Tacuarembo,UY,-31.7333,-55.9833,79.5,63,0,5.99,clear sky,2021-10-26 21:28:33
572,Sojat,IN,25.9167,73.6667,72.21,40,0,7.2,clear sky,2021-10-26 21:28:38
575,Mana,GF,5.6592,-53.7767,80.15,84,48,11.7,light rain,2021-10-26 21:28:43
577,Jalu,LY,29.0331,21.5482,73.17,44,0,12.73,clear sky,2021-10-26 21:28:46
579,Zhuhai,CN,22.2769,113.5678,78.06,88,40,9.22,light rain,2021-10-26 21:28:49
583,Biak,ID,-0.9131,122.8766,76.28,84,85,0.67,overcast clouds,2021-10-26 21:28:56
586,Las Cruces,US,32.3123,-106.7783,77.11,27,1,11.01,clear sky,2021-10-26 21:25:21
587,Kipini,KE,-2.5257,40.5262,80.89,87,99,11.68,overcast clouds,2021-10-26 21:29:03
588,Am Timan,TD,11.0297,20.2827,80.87,50,31,4.45,scattered clouds,2021-10-26 21:29:05
591,Ler,SS,8.3018,30.1418,72.45,89,93,1.74,light rain,2021-10-26 21:29:10
595,Galesong,ID,-5.3166,119.3661,75.22,80,100,3.74,overcast clouds,2021-10-26 21:29:16
597,Brownwood,US,31.7093,-98.9912,87.12,48,1,18.41,clear sky,2021-10-26 21:29:21
599,Gaoual,GN,11.75,-13.2,76.12,91,62,2.13,broken clouds,2021-10-26 21:29:24
600,Moca,DO,19.5,-70.5,82.45,60,40,6.91,scattered clouds,2021-10-26 21:29:26
601,Pemangkat,ID,1.1667,108.9667,79.38,82,100,4.05,overcast clouds,2021-10-26 21:29:28
603,Tabuk,PH,17.4189,121.4443,72.52,92,81,3.15,broken clouds,2021-10-26 21:25:44
608,Presidente Olegario,BR,-18.4178,-46.4181,70.36,88,85,4.79,overcast clouds,2021-10-26 21:29:40
610,Calvinia,ZA,-31.4707,19.776,71.6,21,2,5.75,clear sky,2021-10-26 21:29:43
612,Kalemie,CD,-5.9475,29.1947,74.37,60,23,4.81,few clouds,2021-10-26 21:29:47
614,Odweyne,SO,9.4092,45.064,75.9,41,26,5.53,scattered clouds,2021-10-26 21:29:51
616,Maxixe,MZ,-23.8597,35.3472,71.4,81,8,9.51,clear sky,2021-10-26 21:29:54
617,Doha,QA,25.2867,51.5333,82.38,52,0,6.91,clear sky,2021-10-26 21:29:56
619,Jalcocotan,MX,21.4667,-105.1167,81.21,76,39,5.95,scattered clouds,2021-10-26 21:29:59
621,Kieta,PG,-6.2167,155.6333,83.32,68,30,4.85,scattered clouds,2021-10-26 21:30:02
624,Neiafu,TO,-18.65,-173.9833,79.48,73,40,10.36,scattered clouds,2021-10-26 21:30:09
625,Maryborough,AU,-25.5333,152.7,77.11,71,30,3.42,scattered clouds,2021-10-26 21:30:11
627,Gouyave,GD,12.1646,-61.7296,83.17,74,20,20.71,few clouds,2021-10-26 21:30:15
631,Humberto De Campos,BR,-2.5983,-43.4611,79.7,76,6,8.1,clear sky,2021-10-26 21:30:22
632,Denpasar,ID,-8.65,115.2167,80.26,88,75,4.61,broken clouds,2021-10-26 21:27:04
634,Saint-Joseph,RE,-21.3667,55.6167,70.16,78,29,10.29,scattered clouds,2021-10-26 21:30:26
636,Carutapera,BR,-1.195,-46.02,80.37,75,13,10.31,few clouds,2021-10-26 21:30:29
641,Balilihan,PH,9.7561,123.973,77.68,95,98,5.44,overcast clouds,2021-10-26 21:30:36
646,Kaeo,NZ,-35.1,173.7833,70.32,84,100,5.88,overcast clouds,2021-10-26 21:30:45
647,Languyan,PH,5.2618,120.0807,78.82,84,42,1.63,scattered clouds,2021-10-26 21:30:48
649,Regeneracao,BR,-6.2378,-42.6883,87.55,38,96,1.32,overcast clouds,2021-10-26 21:30:51
650,Kimbe,PG,-5.5502,150.1429,80.89,76,99,3.24,overcast clouds,2021-10-26 21:30:53
651,Guiratinga,BR,-16.3494,-53.7583,77.54,68,72,5.66,light rain,2021-10-26 21:30:54
652,Cabedelo,BR,-6.9811,-34.8339,79.47,70,8,13.85,clear sky,2021-10-26 21:30:30
655,Manggar,ID,-2.8833,108.2667,79.84,80,93,1.54,overcast clouds,2021-10-26 21:31:01
657,Gympie,AU,-26.1898,152.665,71.31,90,14,0.65,few clouds,2021-10-26 21:29:18
662,Acarau,BR,-2.8856,-40.12,80.33,77,5,18.54,clear sky,2021-10-26 21:31:16
664,Biltine,TD,14.5333,20.9167,83.48,16,18,8.59,few clouds,2021-10-26 21:31:19
667,Quatre Cocos,MU,-20.2078,57.7625,73.09,78,24,12.19,light rain,2021-10-26 21:31:24
668,Ciamis,ID,-7.3257,108.3534,73.09,97,100,0.58,overcast clouds,2021-10-26 21:31:25
669,Metro,ID,-5.1131,105.3067,75.02,91,100,3.38,overcast clouds,2021-10-26 21:31:28
673,Madang,PG,-5.2246,145.7966,79.12,87,99,2.44,overcast clouds,2021-10-26 21:31:34
674,Nisia Floresta,BR,-6.0911,-35.2086,77.38,70,4,11.65,clear sky,2021-10-26 21:28:02
679,Arlit,NE,18.7369,7.3853,86.68,12,0,6.2,clear sky,2021-10-26 21:31:46
680,Gao,ML,16.6362,1.637,85.82,13,16,8.39,few clouds,2021-10-26 21:31:49
681,Norsup,VU,-16.0667,167.3833,81.36,78,23,7.65,few clouds,2021-10-26 21:29:53
685,Digapahandi,IN,19.3667,84.5833,71.04,88,1,4.25,clear sky,2021-10-26 21:31:56
686,Uruguaiana,BR,-29.7547,-57.0883,85.93,39,0,3.44,clear sky,2021-10-26 21:31:58
689,Touho,NC,-20.7833,165.2333,75.7,78,98,11.92,overcast clouds,2021-10-26 21:32:02
690,Catio,GW,11.2833,-15.25,78.87,82,100,4.41,overcast clouds,2021-10-26 21:32:04
691,Kandra,IN,22.85,86.05,74.07,72,95,3.71,overcast clouds,2021-10-26 21:32:05
693,Wukari,NG,7.85,9.7833,76.64,87,94,4.52,light rain,2021-10-26 21:32:08
696,Les Cayes,HT,18.2,-73.75,81.95,72,51,6.89,broken clouds,2021-10-26 21:31:10
698,Labuhan,ID,-6.8844,112.2051,79.02,82,100,8.7,overcast clouds,2021-10-26 21:32:17
699,Kawalu,ID,-7.3817,108.2082,72.03,97,100,0.51,overcast clouds,2021-10-26 21:32:19
700,Kankan,GN,10.3854,-9.3057,74.89,84,88,4.47,light rain,2021-10-26 21:32:22
